City_ID,City,Lat,Lng,Max Temp,Humidity,Cloudiness,Wind Speed,Country,Date
0,dudinka,69.4058,86.1778,294.05,54,93,0.9,RU,1691527554
1,mount pearl,47.5166,-52.7813,285.9,91,100,4.12,CA,1691482650
2,xifeng,42.7372,124.7222,297.38,76,27,3.36,CN,1691527214
3,albany,42.6001,-73.9662,293.47,82,100,0.45,US,1691488490
4,hawaiian paradise park,19.5933,-154.9731,300.88,74,20,4.12,US,1691510297
5,blackmans bay,-43.0167,147.3167,284.67,64,100,3.76,AU,1691529229
6,skiathos,39.1623,23.4909,296.47,64,20,9.29,GR,1691551991
7,bethel,41.3712,-73.414,295.32,74,75,4.12,US,1691488524
8,mugia,43.1041,-9.2179,291.43,91,3,4.55,ES,1691559333
9,tolanaro,-25.0319,46.9987,292.19,94,40,3.09,MG,1691551471
10,georgetown,5.4112,100.3354,303.12,78,20,1.54,MY,1691536475
11,tazovsky,67.4667,78.7,282.63,92,100,5.93,RU,1691530983
12,rumonge,-3.9736,29.4386,295.54,55,8,1.6,BI,1691554137
13,yellowknife,62.456,-114.3525,294.44,43,75,6.17,CA,1691493553
14,hadibu,12.65,54.0333,298.72,81,100,10.73,YE,1691547072
15,remire-montjoly,4.9167,-52.2667,299.17,89,0,0.51,GF,1691486735
16,bac kan,22.1333,105.8333,301.56,89,84,0.48,VN,1691533903
17,tralee,52.2704,-9.7026,288.97,97,98,2.05,IE,1691557901
18,illizi,26.4833,8.4667,304.04,22,17,6.16,DZ,1691556906
19,sihanoukville,10.6093,103.5296,300.12,89,40,4.63,KH,1691535340
20,ust-nera,64.5667,143.2,291.61,49,89,1.44,RU,1691517216
21,port mathurin,-19.6833,63.4167,295.58,59,92,7.6,MU,1691547109
22,adamstown,-25.066,-130.1015,295.46,85,92,14.3,PN,1691507600
23,nagrota,32.05,76.0833,300.39,73,89,2.12,IN,1691540146
24,vorgashor,67.5833,63.95,281.91,70,100,2.63,RU,1691534449
25,stanley,54.868,-1.6985,283.65,83,0,3.6,GB,1691555400
26,kajaani,64.2273,27.7285,288.18,94,0,2.57,FI,1691545160
27,puerto natales,-51.7236,-72.4875,275.41,95,99,2.25,CL,1691496955
28,nemuro,43.3236,145.575,292.27,99,100,7.07,JP,1691522124
29,puerto ayora,-0.7393,-90.3518,297.34,88,82,2.24,EC,1691496270
30,la passe,45.5549,-0.8967,288.14,62,0,2.72,FR,1691556978
31,edinburgh of the seven seas,-37.0676,-12.3116,284.95,81,100,10.52,SH,1691566814
32,northam,51.0333,-4.2167,288.49,96,100,2.98,GB,1691556832
33,nar'yan-mar,67.6713,53.087,286.03,65,27,1.44,RU,1691537000
34,enewetak,11.3474,162.3373,301.93,77,84,6.56,MH,1691521171
35,anadyr,64.75,177.4833,283.43,93,100,6.71,RU,1691508874
36,college,64.8569,-147.8028,291.81,84,100,1.54,US,1691500467
37,invercargill,-46.4,168.35,279.83,76,89,6.71,NZ,1691524649
38,weno,7.4515,151.8468,304.12,79,100,1.54,FM,1691523969
39,machico,32.7,-16.7667,296.32,85,20,2.57,PT,1691562375
40,qaqortoq,60.7167,-46.0333,277.87,89,52,0.62,GL,1691477805
41,nagato,34.3833,131.2,303.23,71,95,8.21,JP,1691526670
42,petropavlovsk-kamchatsky,53.0452,158.6483,293.48,46,75,2.0,RU,1691517286
43,klyuchi,52.2667,79.1667,294.98,43,63,1.32,RU,1691536549
44,tan-tan,28.438,-11.1032,293.45,93,61,5.49,MA,1691561427
45,vilyuysk,63.7553,121.6247,295.12,35,100,4.88,RU,1691522802
46,port-aux-francais,-49.35,70.2167,274.78,72,57,7.45,TF,1691548631
47,grytviken,-54.2811,-36.5092,270.41,88,24,4.77,GS,1691488837
48,san patricio,28.017,-97.5169,304.36,74,0,6.78,US,1691495780
49,hermanus,-34.4187,19.2345,284.15,84,0,6.04,ZA,1691558977
50,puerto deseado,-47.7503,-65.8938,282.46,53,100,6.73,AR,1691494702
51,mata-utu,-13.2816,-176.1745,301.17,72,4,2.54,WF,1691604121
52,yuzhno-kurilsk,44.0306,145.8556,293.16,98,100,5.47,RU,1691521955
53,salalah,17.0151,54.0924,299.2,94,100,3.6,OM,1691546731
54,mount isa,-20.7333,139.5,297.02,33,6,7.2,AU,1691528937
55,papatowai,-46.5619,169.4708,278.96,69,98,6.86,NZ,1691524404
56,woods creek,47.8787,-121.8985,299.5,61,24,3.13,US,1691499192
57,west island,-12.1568,96.8225,299.14,78,40,5.66,CC,1691538540
58,tsiombe,-25.3,45.4833,291.75,93,0,3.0,MG,1691551857
59,waitangi,-43.9535,-176.5597,282.49,86,100,1.34,NZ,1691607009
60,bluefields,12.0137,-83.7635,298.6,91,100,1.5,NI,1691493784
61,yonggwang-up,40.0183,127.4547,297.42,83,100,1.39,KP,1691526917
62,longyearbyen,78.2186,15.6401,280.06,87,0,1.54,SJ,0
63,port elizabeth,-33.918,25.5701,287.31,94,100,1.03,ZA,1691557408
64,bengkulu,-3.8004,102.2655,299.18,83,29,1.82,ID,1691536649
65,jamestown,42.097,-79.2353,294.92,88,0,4.63,US,1691489824
66,saint-pierre,-21.3393,55.4781,291.97,68,0,2.57,RE,1691549141
67,tabou,4.423,-7.3528,297.03,89,100,5.46,CI,1691562389
68,lebu,-37.6167,-73.65,284.37,70,100,3.9,CL,1691495248
69,avarua,-21.2078,-159.775,297.18,60,75,5.14,CK,1691514406
70,beyneu,45.3167,55.2,300.61,41,0,3.51,KZ,1691543539
71,port-gentil,-0.7193,8.7815,296.27,84,100,5.01,GA,1691558871
72,capao da canoa,-29.7456,-50.0097,288.75,73,100,6.94,BR,1691488795
73,sao joao da barra,-21.6403,-41.0511,294.53,87,14,5.75,BR,1691485958
74,udachny,66.4167,112.4,296.18,46,6,7.2,RU,1691523579
75,kuanda,56.3161,116.0806,298.06,46,43,1.7,RU,1691526732
76,sitka,57.0531,-135.33,288.09,82,100,2.57,US,1691500434
77,utrik,11.2278,169.8474,301.57,77,96,5.06,MH,1691519377
78,sakchu-up,40.3894,125.0467,301.66,68,1,1.36,KP,1691527448
79,seydi,39.4816,62.9137,300.04,36,0,2.9,TM,1691542484
80,santiago de cao,-7.9589,-79.2392,295.22,83,20,3.6,PE,1691494107
81,alice springs,-23.7,133.8833,295.9,27,0,3.6,AU,1691530520
82,saipan,15.1355,145.701,303.54,100,75,2.06,MP,1691524884
83,dryden,49.7833,-92.7503,291.31,72,40,2.57,CA,1691491850
84,minas de marcona,-15.2119,-75.1103,286.16,85,37,4.88,PE,1691493638
85,whitehorse,60.7161,-135.0538,288.58,82,75,2.06,CA,1691499208
86,kapa'a,22.0752,-159.319,309.14,76,75,9.26,US,1691511138
87,teyateyaneng,-29.1472,27.7489,279.87,39,0,1.51,LS,1691556440
88,linfen,36.0889,111.5189,303.3,49,99,1.91,CN,1691531210
89,kodiak,57.79,-152.4072,286.88,88,100,2.57,US,1691504329
90,dois vizinhos,-25.7336,-53.0572,287.8,95,100,3.7,BR,1691489174
91,sinabang,2.4803,96.3801,299.64,82,100,0.11,ID,1691537629
92,hongwon,40.0253,127.9558,295.75,87,100,1.41,KP,1691526796
93,lihue,21.9789,-159.3672,308.73,69,75,9.26,US,1691511157
94,olonkinbyen,70.9221,-8.7187,277.92,93,100,10.66,SJ,1691548672
95,coquimbo,-29.9533,-71.3436,287.0,88,0,2.06,CL,1691493931
96,vorkuta,67.5,64.0,282.21,69,100,2.86,RU,1691534498
97,belmonte,-15.8631,-38.8828,295.52,84,22,2.92,BR,1691484995
98,aasiaat,68.7098,-52.8699,275.53,74,100,1.15,GL,1691474987
99,polyarnyy,69.1989,33.4478,288.65,80,0,4.59,RU,1691540456
100,la mira,18.035,-102.3266,301.64,86,9,2.96,MX,1691497782
101,hithadhoo,-0.6,73.0833,300.56,76,41,2.67,MV,1691543432
102,ulsteinvik,62.3432,5.8487,287.46,90,100,5.36,NO,1691551263
103,bjuv,56.0837,12.9191,286.11,91,20,6.17,SE,1691551585
104,ushuaia,-54.8,-68.3,274.96,80,0,1.54,AR,1691496568
105,valdivia,-39.8142,-73.2459,282.2,92,100,1.07,CL,1691495400
106,campo verde,-20.4167,-54.0667,296.19,42,7,2.28,BR,1691488984
107,ispir,40.4829,40.9956,294.34,62,2,2.63,TR,1691547622
108,estevan,49.1334,-102.9842,296.26,40,75,3.6,CA,1691494428
109,iqaluit,63.7506,-68.5145,278.0,86,20,3.6,CA,1691481951
110,wailua homesteads,22.0669,-159.378,308.39,76,75,9.26,US,1691511153
111,ancud,-41.8697,-73.8203,283.42,97,100,6.41,CL,1691495786
112,howard springs,-12.497,131.047,301.38,32,52,4.91,AU,1691530352
113,fisterra,42.9049,-9.2629,291.34,97,16,5.27,ES,1691559372
114,puerto baquerizo moreno,-0.9,-89.6,296.58,78,100,4.96,EC,1691496101
115,kalabo,-14.97,22.6814,286.65,48,71,2.16,ZM,1691556531
116,lata,40.1629,-8.3327,293.66,85,0,1.02,PT,1691559509
117,lazaro cardenas,17.9583,-102.2,302.24,83,21,3.47,MX,1691497758
118,naze,28.3667,129.4833,298.66,85,100,11.32,JP,1691527680
119,basciftlik,40.5469,37.1692,288.49,92,100,2.16,TR,1691548533
120,vallenar,-28.5708,-70.7581,289.58,57,93,1.07,CL,1691493666
121,hamilton,39.1834,-84.5333,298.0,71,40,5.14,US,1691491475
122,nantucket,41.2835,-70.0995,297.18,70,20,7.72,US,1691487739
123,badger,64.8,-147.5333,291.77,82,75,1.54,US,1691500432
124,prince rupert,54.3161,-130.3201,288.2,100,100,3.6,CA,1691499930
125,sabha,27.0377,14.4283,298.87,36,0,5.22,LY,1691555425
126,east london,-33.0153,27.9116,290.16,81,100,3.54,ZA,1691556758
127,berezovyy,51.6667,135.7,295.18,51,48,3.62,RU,1691523090
128,akoupe,6.39,-3.9003,295.68,96,100,2.02,CI,1691561424
129,palmer,42.1584,-72.3287,294.9,80,75,4.12,US,1691488157
130,vilyuchinsk,52.9306,158.4028,294.3,54,67,2.01,RU,1691517370
131,ribeira grande,38.5167,-28.7,297.47,94,97,9.39,PT,1691564602
132,pacific grove,36.6177,-121.9166,293.97,80,20,3.09,US,1691500757
133,mount gambier,-37.8333,140.7667,287.99,50,1,6.33,AU,1691530186
134,kasongo-lunda,-6.4667,16.8167,296.06,41,59,0.74,CD,1691557338
135,kavaratti,10.5669,72.642,301.24,73,100,8.16,IN,1691542757
136,as sulayyil,20.4607,45.5779,304.29,10,15,2.65,SA,1691548504
137,tiksi,71.6872,128.8694,291.2,45,7,1.29,RU,1691514255
138,chibougamau,49.9168,-74.3659,284.94,94,100,3.09,CA,1691487409
139,sirpur,19.4833,79.6,299.69,79,100,2.51,IN,1691540415
140,cutlerville,42.8409,-85.6636,295.2,88,77,2.67,US,1691491266
141,san juan de los morros,9.9115,-67.3538,295.61,95,38,0.7,VE,1691489999
142,holualoa,19.6228,-155.9522,302.06,74,20,6.17,US,1691510529
143,gadzhiyevo,69.2551,33.3362,288.76,79,0,4.55,RU,1691540430
144,canutama,-6.5339,-64.3831,299.7,64,61,0.13,BR,1691490442
145,marksville,31.128,-92.0662,307.18,48,0,3.88,US,1691494173
146,margaret river,-33.95,115.0667,287.41,53,17,2.02,AU,1691535946
147,balkanabat,39.5108,54.3671,303.31,22,0,1.49,TM,1691544533
148,thompson,55.7435,-97.8558,286.24,76,75,4.63,CA,1691491778
149,iskateley,67.6803,53.1512,285.94,65,27,1.41,RU,1691536978
150,salinopolis,-0.6136,-47.3561,299.4,83,70,5.14,BR,1691485943
151,katsuura,35.1333,140.3,303.16,88,99,6.89,JP,1691524404
152,al jawf,29.5,38.75,298.64,32,0,3.06,SA,1691549359
153,kudahuvadhoo,2.6708,72.8944,300.66,73,98,2.75,MV,1691543252
154,haiku-pauwela,20.9219,-156.3051,303.43,58,20,11.83,US,1691510509
155,amursk,50.2261,136.8994,293.13,56,83,6.78,RU,1691523083
156,mega,4.05,38.3,286.58,83,11,7.05,ET,1691551459
157,uturoa,-16.7333,-151.4333,298.54,83,99,6.47,PF,1691512063
158,vredendal,-31.6683,18.5012,285.13,71,0,3.38,ZA,1691558888
159,sol'-iletsk,51.1631,54.9918,290.53,76,0,4.16,RU,1691542581
160,bomdila,27.25,92.4,290.36,91,99,0.28,IN,1691536686
161,tadjourah,12.0,42.5,303.9,41,97,4.31,DJ,1691549888
162,ceeldheer,3.8488,47.1806,296.99,85,58,7.76,SO,1691549341
163,labrador city,52.9463,-66.9114,285.1,94,100,3.6,CA,1691485004
164,tadine,-21.55,167.8833,293.83,52,9,5.51,NC,1691522192
165,taoudenni,22.6783,-3.9836,310.12,11,0,5.86,ML,1691560221
166,atafu village,-8.5421,-172.5159,301.45,76,78,6.46,TK,1691602912
167,lib,8.3122,167.3766,301.3,79,77,6.14,MH,1691520180
168,ilulissat,69.2167,-51.1,281.16,66,75,0.0,GL,1691474085
169,kone,-21.0595,164.8658,296.15,42,7,5.82,NC,1691522877
170,ashkasham,36.6833,71.5333,284.81,51,0,0.03,AF,1691540745
171,chonchi,-42.6128,-73.8092,282.71,99,100,2.42,CL,1691495877
172,al jahra',29.3375,47.6581,311.27,14,0,4.92,KW,1691547235
173,tulun,54.5611,100.5792,292.94,80,100,0.49,RU,1691530895
174,palora,-1.7,-77.9333,290.4,96,93,1.53,EC,1691493357
175,khandyga,62.6667,135.6,295.4,38,24,1.05,RU,1691519927
176,port macquarie,-31.4333,152.9167,292.53,56,0,2.65,AU,1691526626
177,boende,-0.2167,20.8667,294.59,97,81,0.66,CD,1691555936
178,laurel,39.0993,-76.8483,299.54,71,0,3.6,US,1691489640
179,sheridan,44.8333,-106.9173,294.52,80,0,2.06,US,1691496081
180,san juan del rio,20.3833,-100.0,296.11,73,97,4.76,MX,1691497037
181,okha,53.5739,142.9478,289.08,83,75,6.04,RU,1691520941
182,kangding,30.0513,101.9603,294.88,73,14,1.81,CN,1691534129
183,tamale,9.4008,-0.8393,295.85,97,84,2.57,GH,1691560477
184,safi,32.1667,-8.8333,296.36,72,2,3.03,MA,1691560524
185,port alfred,-33.5906,26.891,287.69,97,100,4.84,ZA,1691557059
186,dhupgari,26.5858,89.0145,298.64,94,100,3.81,IN,1691537558
187,bakchar,57.0186,82.0711,288.4,77,100,1.13,RU,1691534716
188,bishkul,54.7803,69.1033,294.32,46,78,2.46,KZ,1691538406
189,cill airne,52.05,-9.5167,289.03,98,87,1.72,IE,1691557902
190,rongelap,11.1635,166.8941,301.63,77,100,5.36,MH,1691520091
191,deschutes river woods,43.9915,-121.3584,302.27,28,0,4.63,US,1691499675
192,isafjordur,66.0755,-23.124,282.95,62,14,1.59,IS,1691556398
193,punta arenas,-53.15,-70.9167,274.31,88,32,2.9,CL,1691496852
194,constantia,44.1833,28.65,287.53,73,0,3.53,RO,1691550085
195,dabat,12.9842,37.765,283.93,95,49,1.18,ET,1691550952
196,fortuna,40.5982,-124.1573,291.85,77,0,5.66,US,1691500812
197,ravar,31.2656,56.8055,299.97,24,0,2.61,IR,1691544853
198,grand baie,-20.0182,57.5802,293.41,75,0,0.89,MU,1691548535
199,columbia falls,48.3725,-114.1815,297.82,47,0,6.17,US,1691497253
200,imbituba,-28.24,-48.6703,291.4,75,100,3.32,BR,1691488338
201,hammerfest,70.6634,23.6821,296.4,73,1,2.06,NO,1691541202
202,bikenibeu village,1.3673,173.1241,303.13,70,40,2.57,KI,1691519288
203,new norfolk,-42.7826,147.0587,285.33,49,100,1.92,AU,1691529261
204,hell-ville,-13.4,48.2667,297.0,71,9,0.74,MG,1691550279
205,chaman,30.9236,66.4512,300.62,15,0,2.22,PK,1691542571
206,colonia,50.9333,6.95,289.51,89,100,4.63,DE,1691554168
207,mangrol,21.1167,70.1167,300.06,84,100,7.77,IN,1691542560
208,hotan,37.0997,79.9269,301.03,33,47,2.31,CN,1691538682
209,happy valley-goose bay,53.3168,-60.3315,289.32,77,75,1.03,CA,1691483341
210,palangkaraya,-2.2,113.8333,302.28,56,40,2.03,ID,1691533763
211,zhicheng,30.2956,111.5047,303.37,67,12,2.52,CN,1691531814
212,caohe,30.2297,115.4335,303.49,71,78,1.24,CN,1691530877
213,phrae,18.0833,100.0,296.52,94,20,2.06,TH,1691535628
214,belyy yar,53.6039,91.3903,294.09,68,0,3.0,RU,1691533323
215,aginskoye,51.1,114.53,298.32,36,39,2.6,RU,1691528289
216,greymouth,-42.4667,171.2,283.59,58,27,1.06,NZ,1691523432
217,auki,-8.7676,160.7034,299.97,84,100,3.23,SB,1691522972
218,orenburg,51.7727,55.0988,289.16,79,0,3.95,RU,1691542434
219,fort st. john,56.2499,-120.8529,293.09,64,75,4.12,CA,1691497173
220,ust'-kulom,61.6864,53.6902,286.4,76,90,1.47,RU,1691540020
221,argo,37.6333,22.7333,299.7,70,36,2.27,GR,1691552355
222,hobyo,5.3505,48.5268,297.35,85,69,9.5,SO,1691548914
223,bredasdorp,-34.5322,20.0403,281.95,90,0,2.7,ZA,1691558795
224,crane,31.3974,-102.3501,305.51,31,26,7.89,US,1691496616
225,al 'amarah,31.8406,47.1396,307.73,21,1,2.54,IQ,1691547117
226,ilhabela,-23.7781,-45.3581,292.93,94,100,4.66,BR,1691487164
227,gogrial,8.5332,28.1004,294.66,94,100,0.91,SS,1691553593
228,chui,-33.6971,-53.4616,287.25,62,100,5.5,UY,1691489998
229,susuman,62.7833,148.1667,282.77,52,100,0.79,RU,1691516855
230,omis,43.4447,16.6886,293.11,57,6,2.42,HR,1691553063
231,afaahiti,-17.75,-149.2833,298.08,84,100,8.55,PF,1691511623
232,mariehamn,60.0973,19.9348,288.07,82,40,9.26,AX,1691548712
233,veracruz,19.3333,-96.6667,296.87,95,14,0.48,MX,1691496321
234,sharan,54.8167,54.0,287.99,93,3,3.48,RU,1691542027
235,pimentel,-6.8367,-79.9342,295.31,83,0,7.2,PE,1691494195
236,point pedro,9.8167,80.2333,301.09,80,100,6.23,LK,1691540988
237,andergrove,-21.0833,149.1833,297.4,73,88,7.69,AU,1691526641
238,balqash,46.8481,74.995,294.48,83,0,3.0,KZ,1691538544
239,cherryville,53.1569,-6.9667,288.66,90,27,1.79,IE,1691557056
240,mogocha,53.7333,119.7667,297.87,37,8,1.71,RU,1691526476
241,severo-yeniseyskiy,60.3725,93.0408,288.47,76,17,1.98,RU,1691531042
242,imperia,43.9667,7.7833,291.97,78,100,1.65,IT,1691555128
243,tulagi,-9.0996,160.1476,299.97,78,100,5.42,SB,1691523129
244,firmat,-33.4594,-61.4832,280.88,67,73,2.33,AR,1691491898
245,antsiranana,-12.2787,49.2917,294.52,82,5,5.03,MG,1691549953
246,sur,22.5667,59.5289,303.18,60,3,3.2,OM,1691544983
247,keflavik,64.0049,-22.5624,282.39,93,0,3.6,IS,1691557364
248,itacarambi,-15.1022,-44.0919,296.99,38,20,0.6,BR,1691486188
249,flying fish cove,-10.4217,105.6791,298.97,78,75,7.2,CX,1691536291
250,iquitos,-3.7481,-73.2472,296.17,94,0,0.51,PE,1691492375
251,beloyarskiy,63.7119,66.6722,287.05,71,100,3.27,RU,1691536039
252,castiglione del lago,43.1271,12.0453,291.59,78,100,0.8,IT,1691554223
253,lautoka,-17.6167,177.4667,302.07,58,40,3.6,FJ,1691519590
254,bilibino,68.0546,166.4372,279.5,68,100,3.03,RU,1691509418
255,west richland,46.3043,-119.3614,306.1,25,0,3.6,US,1691498842
256,hakha,22.65,93.6167,290.86,97,100,0.89,MM,1691536793
257,belgern,51.4833,13.1333,286.53,83,99,3.46,DE,1691552575
258,brisas de zicatela,15.8369,-97.0419,303.44,58,40,2.06,MX,1691496684
259,asikkala,61.2167,25.5,286.06,89,5,3.85,FI,1691546976
260,san luis de la loma,17.2706,-100.8939,301.61,87,40,3.17,MX,1691497498
261,le port,-20.9373,55.2919,294.13,80,1,2.9,RE,1691549155
262,tangalle,6.024,80.7911,298.24,81,100,4.71,LK,1691541123
263,namsos,64.4662,11.4957,290.18,63,100,4.63,NO,1691548947
264,aswan,24.0934,32.907,307.76,16,0,2.06,EG,1691551246
265,dhidhdhoo,6.8833,73.1,301.0,77,100,6.26,MV,1691542909
266,antofagasta,-23.65,-70.4,289.75,71,37,2.54,CL,1691493161
267,al bayda',32.7627,21.7551,292.54,84,4,4.89,LY,1691553119
268,magadi,12.9667,77.2333,295.24,83,100,3.05,IN,1691541480
269,shijiang,27.0819,110.7933,301.23,85,99,1.42,CN,1691532285
270,inhambane,-23.865,35.3833,292.15,75,9,4.53,MZ,1691554163
271,prince george,53.9166,-122.753,292.84,72,100,4.63,CA,1691498204
272,tara,56.8944,74.371,291.16,66,16,2.44,RU,1691536601
273,glace bay,46.1969,-59.957,290.92,91,100,6.17,CA,1691484590
274,san antonio de pale,-1.4014,5.6325,296.4,79,22,5.99,GQ,1691559674
275,kem',64.9555,34.5793,286.9,92,0,3.2,RU,1691543143
276,fort bragg,35.139,-79.006,301.94,65,0,3.09,US,1691490619
277,tyukhtet,56.5389,89.3011,291.55,70,35,1.94,RU,1691533108
278,caaguazu,-25.45,-56.0167,291.5,94,74,2.15,PY,1691489860
279,shingu,33.7333,135.9833,301.15,92,54,3.75,JP,1691525590
280,sydney,-33.8679,151.2073,292.79,58,0,4.12,AU,1691527270
281,skjern,55.95,8.5,287.05,72,100,0.89,DK,1691552681
282,port saint john's,-31.6229,29.5448,291.31,69,93,4.08,ZA,1691556235
283,jalapa,19.5333,-96.9167,291.88,98,40,1.08,MX,1691496365
284,choibalsan,48.0667,114.5,294.79,50,99,1.06,MN,1691528852
285,mbandaka,0.0487,18.2603,294.12,96,88,1.21,CD,1691556544
286,uacu cungo,-11.3634,15.1208,289.25,62,2,1.01,AO,1691558087
287,labytnangi,66.6572,66.4183,285.86,72,100,2.32,RU,1691534491
288,zeya,53.75,127.2667,299.65,40,100,1.56,RU,1691524670
289,al jubayl,27.0112,49.6583,306.88,36,0,3.89,SA,1691546969
290,ta`u,-14.2336,-169.5144,300.47,69,95,3.51,AS,1691516217
291,lucapa,-8.4192,20.7447,292.5,40,2,1.89,AO,1691556531
292,mantua,45.1667,10.7833,292.68,84,100,2.42,IT,1691554231
293,kirkland lake,48.1446,-80.0377,290.31,82,42,0.0,CA,1691489090
294,vadso,70.0744,29.7487,292.64,82,0,1.54,NO,1691540448
295,jahanian shah,31.8055,72.2771,308.0,39,5,0.86,PK,1691541085
296,touros,-5.1989,-35.4608,297.03,85,100,4.62,BR,1691483409
297,nova sintra,14.8667,-24.7167,295.84,73,14,5.77,CV,1691565810
298,brenham,30.1669,-96.3977,309.25,47,0,5.14,US,1691495308
299,siliana,36.085,9.3708,294.52,50,0,1.43,TN,1691555739
300,orsa,54.5153,30.4053,286.68,75,100,1.87,BY,1691547769
301,ugoofaaru,5.6667,73.0,300.43,80,100,5.44,MV,1691543018
302,lospalos,-8.5186,127.0025,298.6,59,99,4.25,TL,1691531041
303,freetown,8.484,-13.2299,298.15,89,66,3.58,SL,1691563516
304,shannon,52.7039,-8.8642,290.45,94,75,2.06,IE,1691557609
305,lianran,24.9227,102.485,292.45,81,87,1.47,CN,1691534471
306,cruz grande,16.7333,-99.1333,300.0,88,0,1.51,MX,1691497117
307,chirilagua,13.2203,-88.1386,300.98,81,59,0.93,SV,1691494745
308,anna regina,7.2644,-58.5077,299.81,86,96,3.59,GY,1691488066
309,ciudad lazaro cardenas,17.9583,-102.2,302.24,83,21,3.47,MX,1691497758
310,beihai,21.4833,109.1,303.05,78,76,7.26,CN,1691533172
311,port douglas,-16.4833,145.4667,296.34,67,23,7.92,AU,1691527183
312,carutapera,-1.195,-46.02,298.65,82,94,3.59,BR,1691485663
313,kroya,-7.6331,109.2461,298.83,71,39,3.16,ID,1691535240
314,arraial do cabo,-22.9661,-42.0278,294.01,86,100,8.54,BR,1691486299
315,livingston,55.9029,-3.5226,283.64,85,18,3.0,GB,1691555582
316,namdrik,5.5994,168.1028,301.37,70,100,2.22,MH,1691520198
317,traralgon,-38.1833,146.5333,289.56,42,100,0.82,AU,1691528841
318,anloga,5.7947,0.8973,297.82,88,98,7.13,GH,1691560314
319,van wert,40.8695,-84.5841,294.47,91,0,0.89,US,1691491273
320,karratha,-20.7377,116.8463,299.3,29,0,4.26,AU,1691534372
321,valdahon,47.15,6.35,287.63,63,100,2.2,FR,1691554985
322,kandira,41.0736,30.1746,295.7,85,54,5.3,TR,1691550145
323,la'ie,21.6477,-157.9253,304.13,68,29,5.81,US,1691510839
324,mahina,-17.5065,-149.489,299.02,78,75,8.75,PF,1691511654
325,extrema,-22.8547,-46.3183,288.49,92,99,2.59,BR,1691487319
326,san jose del cabo,23.0589,-109.6977,307.37,56,40,2.06,MX,1691499143
327,kurmuk,10.55,34.2833,293.18,95,100,1.16,SD,1691551965
328,tura,25.5198,90.2201,297.56,95,100,2.29,IN,1691537363
329,palikir - national government center,6.9248,158.1611,300.62,83,100,6.17,FM,1691522491
330,tejen,37.3834,60.5054,301.95,24,0,2.55,TM,1691543313
331,kirakira,-10.4544,161.9205,299.86,82,100,3.41,SB,1691522799
332,severoural'sk,60.1533,59.952,289.72,83,98,1.39,RU,1691539073
333,iranshahr,27.2025,60.6848,306.03,32,0,0.57,IR,1691544305
334,kembe,4.6228,21.8865,293.47,98,100,0.56,CF,1691555358
335,kanniyakumari,8.0833,77.5667,299.38,79,100,7.52,IN,1691541752
336,shevchenko,48.5,35.0,290.04,77,95,6.71,UA,1691547876
337,schriever,29.7421,-90.8104,304.26,82,81,0.89,US,1691494007
338,vernon,50.2581,-119.2691,301.82,30,83,2.06,CA,1691498132
339,monte patria,-30.6919,-70.9467,291.07,59,100,0.79,CL,1691493904
340,colonia menno,-22.3667,-59.8167,296.6,59,100,5.3,PY,1691490518
341,grand-lahou,5.1367,-5.0242,296.46,93,100,5.75,CI,1691561781
342,puerto aysen,-45.4,-72.7,278.88,100,100,0.89,CL,1691495986
343,torghay,49.6339,63.4981,296.38,62,7,3.26,KZ,1691540828
344,luderitz,-26.6481,15.1594,289.05,60,0,6.03,NA,1691559244
345,gotsucho,35.0,132.2167,305.91,58,54,4.85,JP,1691526359
346,kuqa,41.7278,82.9364,301.68,24,0,1.18,CN,1691537387
347,caconda,-13.7333,15.0667,286.52,56,5,0.32,AO,1691558268
348,papao,-17.75,-149.55,298.97,84,100,8.49,PF,1691511687
349,yelizovo,53.1873,158.3805,294.23,49,20,2.0,RU,1691517319
350,tarawa,1.419,172.984,303.2,70,40,2.57,KI,1691519318
351,patacamaya,-17.2333,-67.9167,281.03,66,0,1.07,BO,1691492063
352,zhanjiang,21.2815,110.3427,303.95,67,69,5.74,CN,1691532890
353,la huacana,18.9667,-101.8167,300.15,72,7,2.22,MX,1691497586
354,katsuren-haebaru,26.3369,127.8719,302.16,89,75,7.2,JP,1691528251
355,al hazm,16.1641,44.7769,303.2,26,100,1.59,YE,1691549032
356,hirara,24.8,125.2833,303.3,84,75,5.14,JP,1691529008
357,road town,18.4167,-64.6167,302.17,84,40,5.14,VG,1691488700
358,knyaze-volkonskoye,48.4642,135.4567,297.34,66,76,2.59,RU,1691523749
359,trincomalee,8.5711,81.2335,301.02,70,100,7.46,LK,1691540837
360,namibe,-15.1961,12.1522,290.14,89,2,3.06,AO,1691559074
361,urangan,-25.3,152.9,293.25,59,5,7.37,AU,1691526090
362,carora,10.1755,-70.0827,300.81,65,15,3.6,VE,1691490635
363,walvis bay,-22.9575,14.5053,286.68,88,100,3.09,NA,1691559098
364,puerto quijarro,-17.7833,-57.7667,297.99,52,4,0.78,BO,1691489669
365,pampa,35.5362,-100.9599,306.68,37,84,3.69,US,1691495846
366,les cayes,18.2,-73.75,300.67,85,11,1.8,HT,1691490910
367,krasnyy chikoy,50.3643,108.7512,289.79,96,100,1.08,RU,1691529820
368,talnakh,69.4865,88.3972,293.82,49,82,0.67,RU,1691526939
369,demyansk,57.643,32.466,285.64,87,51,1.4,RU,1691546464
370,springbok,-29.6643,17.8865,284.33,50,0,3.54,ZA,1691558852
371,kill devil hills,36.0307,-75.676,299.25,83,0,1.54,US,1691489720
372,aberystwyth,52.4155,-4.0829,282.43,86,19,1.61,GB,1691556521
373,lorengau,-2.0226,147.2712,302.12,71,73,8.19,PG,1691525727
374,sisimiut,66.9395,-53.6735,279.73,70,18,1.24,GL,1691476565
375,cockburn town,21.4612,-71.1419,301.98,86,3,7.7,TC,1691490021
376,igrim,63.1906,64.4162,288.3,73,100,3.4,RU,1691536819
377,saldanha,-33.0117,17.9442,282.18,81,0,4.28,ZA,1691559148
378,atasu,48.6814,71.6433,295.03,62,82,2.52,KZ,1691539041
379,tegueste,28.5167,-16.3167,293.14,84,0,6.69,ES,1691562672
380,huamuxtitlan,17.8167,-98.5667,298.14,66,21,1.09,MX,1691496897
381,salair,54.2312,85.7972,293.42,51,36,0.64,RU,1691534524
382,howrah,22.5892,88.3103,301.15,94,75,0.0,IN,1691538072
383,puerto penasco,31.3167,-113.5333,305.88,72,9,5.36,MX,1691499309
384,doctor juan leon mallorquin,-25.4,-55.2667,292.0,93,99,3.49,PY,1691489676
385,umm kaddadah,13.6017,26.6876,299.28,68,31,4.41,SD,1691553566
386,mili,6.0815,171.735,301.15,80,98,6.04,MH,1691519292
387,manggar,-2.8833,108.2667,301.6,65,29,6.94,ID,1691535146
388,lagunas,-5.2269,-75.6753,297.39,89,100,2.4,PE,1691493061
389,fale old settlement,-9.3852,-171.2468,300.94,80,34,5.49,TK,1691602666
390,scarborough,54.2797,-0.4044,284.35,82,100,1.79,GB,1691555227
391,bor,56.3567,44.0669,289.11,80,1,3.06,RU,1691544028
392,viqueque,-8.8673,126.3658,300.68,56,86,2.94,TL,1691531218
393,peniche,39.3558,-9.3811,294.42,91,27,4.08,PT,1691559861
394,havre,49.5833,0.3333,289.93,94,100,7.2,FR,1691556012
395,alofi,-19.0595,-169.9187,300.09,89,75,4.63,NU,1691516673
396,ust'-talovka,50.5493,81.85,291.91,47,100,1.23,KZ,1691536247
397,arraias,-12.9288,-46.9437,296.41,28,0,1.91,BR,1691486713
398,laguna,38.421,-121.4238,305.35,45,0,5.66,US,1691500427
399,hilo,19.7297,-155.09,302.75,75,20,4.12,US,1691510314
400,es castell,39.8795,4.2854,294.53,83,0,0.51,ES,1691556514
401,pitimbu,-7.4706,-34.8086,296.48,81,19,4.27,BR,1691483412
402,yangjiang,21.85,111.9667,304.15,65,85,3.33,CN,1691532454
403,jimenez,28.3333,-105.4,307.45,17,6,3.38,MX,1691497643
404,terra santa,-2.1042,-56.4869,300.0,59,53,0.93,BR,1691488238
405,antalaha,-14.9003,50.2788,292.24,90,8,2.65,MG,1691549904
406,mejit,10.2753,170.8646,301.51,73,72,5.87,MH,1691519202
407,makungu,-8.7333,35.2833,285.06,89,0,0.79,TZ,1691553064
408,muravlenko,63.7898,74.523,285.25,77,99,9.3,RU,1691534115
409,saint-sulpice-la-pointe,43.7742,1.6874,289.42,42,5,1.33,FR,1691556620
410,new plymouth,-39.0667,174.0833,283.32,64,36,5.51,NZ,1691522334
411,zamora,-4.0692,-78.9567,293.09,96,100,0.45,EC,1691493767
412,barah,13.7,30.3667,297.56,79,57,6.01,SD,1691552675
413,al bawiti,28.3492,28.8659,297.17,67,0,3.3,EG,1691551839
414,kenora,49.8167,-94.4337,291.69,68,20,2.57,CA,1691492248
415,karachi,24.9056,67.0822,300.05,83,75,5.14,PK,1691542971
416,la sarre,48.8002,-79.1996,289.58,84,30,2.13,CA,1691488774
417,laminusa,5.5549,120.9136,301.85,74,100,3.84,PH,1691531527
418,olovyannaya,50.95,115.5667,298.83,34,4,1.77,RU,1691528069
419,pachino,36.7186,15.0907,296.08,70,0,2.86,IT,1691554295
420,riohacha,11.5444,-72.9072,300.65,87,79,1.89,CO,1691491213
421,hasaki,35.7333,140.8333,303.31,90,100,6.72,JP,1691524210
422,yemetsk,63.4721,41.7941,286.24,92,2,1.86,RU,1691542133
423,lukoyanov,55.0277,44.4786,289.69,69,0,3.27,RU,1691544264
424,porto novo,6.4965,2.6036,296.97,91,92,3.03,BJ,1691559855
425,qui nhon,13.7667,109.2333,305.24,57,100,3.96,VN,1691533740
426,quellon,-43.1167,-73.6167,283.29,93,100,2.06,CL,1691495896
427,vanimo,-2.6741,141.3028,302.89,66,33,2.66,PG,1691527204
428,broome,42.2506,-75.833,291.97,91,94,4.47,US,1691488986
429,daru,-9.0763,143.2092,298.54,77,87,7.61,PG,1691527191
430,wattegama,6.7989,81.4808,299.61,70,100,2.59,LK,1691540903
431,parkes,-33.1333,148.1833,292.23,43,10,3.95,AU,1691527923
432,port lincoln,-34.7333,135.8667,291.44,44,0,11.18,AU,1691531035
433,kozhevnikovo,56.2589,83.9714,289.96,70,81,1.58,RU,1691534463
434,noumea,-22.2763,166.4572,296.14,54,9,4.38,NC,1691522592
435,at taj,24.2049,23.2857,299.94,35,79,4.13,LY,1691553546
436,rio grande,-32.035,-52.0986,287.01,73,100,7.99,BR,1691489509
437,empalme,27.9667,-110.8167,312.18,47,0,7.72,MX,1691498978
438,shahrak,34.1074,64.3052,287.58,41,0,2.05,AF,1691542762
439,cruzeiro do sul,-29.5128,-51.9853,290.42,75,100,2.33,BR,1691489247
440,shanghai,31.2222,121.4581,308.11,78,75,4.0,CN,1691529334
441,colac,-38.3333,143.5833,287.13,58,1,6.69,AU,1691529565
442,nampula,-15.1165,39.2666,287.32,96,0,1.8,MZ,1691552562
443,cape canaveral,28.4058,-80.6048,305.19,76,0,5.14,US,1691491684
444,puerto madero,14.7208,-92.4215,302.69,76,100,3.64,MX,1691495660
445,skelleftea,64.7507,20.9528,288.35,100,20,3.09,SE,1691546528
446,totness,5.8833,-56.3167,298.41,90,76,5.9,SR,1691487638
447,minab,27.1467,57.0801,305.87,64,2,1.13,IR,1691545175
448,selkirk,50.1436,-96.8845,293.19,70,0,4.95,CA,1691492776
449,xinyuan,37.3,99.0,288.85,62,78,1.29,CN,1691534078
450,mocajuba,-2.5842,-49.5072,298.15,84,89,1.63,BR,1691486597
451,millerovo,48.9226,40.3967,293.57,65,3,3.21,RU,1691546505
452,inda silase,14.1031,38.2829,287.71,92,43,1.01,ET,1691550745
453,kupino,54.3663,77.2981,293.4,55,14,3.51,RU,1691536535
454,wuhai,39.6647,106.8122,301.85,49,35,9.8,CN,1691531918
455,coahuayana de hidalgo,18.7,-103.6583,301.15,89,34,1.76,MX,1691498050
456,ocean city,39.2776,-74.5746,298.14,74,1,3.13,US,1691489071
457,santa cruz,-17.8,-63.1667,293.85,56,0,2.06,BO,1691490966
458,sona,45.4388,10.8255,292.9,77,0,1.03,IT,1691554180
459,nguigmi,14.2495,13.1092,301.97,61,81,4.14,NE,1691556777
460,kalas,18.1667,74.8,297.54,75,100,3.43,IN,1691541671
461,callao,-12.0667,-77.15,294.31,73,20,5.66,PE,1691493898
462,ilha de mocambique,-15.0342,40.7358,294.78,76,0,6.95,MZ,1691552204
463,murehwa,-17.6432,31.784,279.56,66,0,1.9,ZW,1691554544
464,mazamari,-11.3258,-74.5308,295.61,80,69,1.04,PE,1691493217
465,kalix,65.853,23.1565,288.98,89,0,3.88,SE,1691545394
466,ad darb,17.7229,42.2526,304.89,40,85,2.57,SA,1691549518
467,pisco,-13.7,-76.2167,292.18,82,0,5.66,PE,1691493793
468,rayne,30.2349,-92.2685,306.16,67,1,5.15,US,1691494309
469,pargolovo,60.0869,30.2718,289.03,80,26,0.45,RU,1691546231
470,soto la marina,23.7667,-98.2167,301.62,77,0,6.81,MX,1691496327
471,kharkhorin,47.1975,102.8238,296.34,57,99,3.76,MN,1691531803
472,rabaul,-4.1967,152.1721,301.69,71,77,8.87,PG,1691524701
473,baoqing,46.3317,132.2111,296.88,76,90,3.0,CN,1691524883
474,pangody,65.85,74.4859,281.41,85,100,8.91,RU,1691533045
475,kendari,-3.945,122.4989,301.86,64,15,1.58,ID,1691531804
476,biltine,14.5333,20.9167,297.58,75,100,3.1,TD,1691554882
477,revelstoke,50.9832,-118.2023,294.16,73,100,1.03,CA,1691497735
478,kormend,47.011,16.606,285.61,82,59,1.74,HU,1691552544
479,baissa,7.2333,10.6333,294.85,99,100,0.63,NG,1691557877
480,suolahti,62.5642,25.8536,285.35,100,0,1.86,FI,1691546361
481,nuuk,64.1835,-51.7216,277.49,93,92,2.57,GL,1691477701
482,dunedin,-45.8742,170.5036,280.26,72,100,5.36,NZ,1691524057
483,muscatine,41.4667,-91.1335,296.24,85,0,1.54,US,1691492767
484,mazagao,-0.115,-51.2894,300.18,95,93,2.42,BR,1691486853
485,olinda,-8.0089,-34.8553,299.0,73,40,4.12,BR,1691483461
486,oranjemund,-28.55,16.4333,284.94,93,4,4.08,NA,1691559102
487,praia,14.9215,-23.5087,299.45,69,75,4.63,CV,1691565516
488,el calafate,-50.3408,-72.2768,274.38,94,82,1.77,AR,1691496657
489,cumbum,9.7333,77.3,297.41,79,100,3.24,IN,1691541699
490,chifeng,42.2683,118.9636,295.77,71,64,1.78,CN,1691528662
491,turki,51.987,43.2731,295.12,49,87,3.17,RU,1691545231
492,kidal,18.4411,1.4078,302.99,48,78,3.7,ML,1691559267
493,gulf shores,30.246,-87.7008,303.47,75,0,4.12,US,1691493212
494,mabaruma,8.2,-59.7833,298.2,90,100,1.38,GY,1691488305
495,kerikeri,-35.2268,173.9474,289.21,68,94,1.79,NZ,1691521952
496,shakawe,-18.3667,21.85,285.95,38,4,2.71,BW,1691556981
497,aver-o-mar,41.4078,-8.7812,295.55,94,40,2.57,PT,1691559457
498,bamboo flat,11.7,92.7167,301.67,81,87,7.8,IN,1691537856
499,coyhaique,-45.5752,-72.0662,280.12,70,0,1.03,CL,1691495859
500,dalcahue,-42.3628,-73.7022,282.21,100,100,3.6,CL,1691495820
501,dawei,14.0833,98.2,299.66,90,100,2.26,MM,1691536365
502,changyon,38.2508,125.0961,303.13,65,61,2.39,KP,1691527700
503,zalingei,12.9096,23.4741,293.49,93,82,0.92,SD,1691554388
504,rajgarh,28.6333,75.3833,302.67,65,100,8.43,IN,1691540644
505,belo sur tsiribihina,-19.7,44.55,289.53,80,0,0.97,MG,1691551636
506,queenstown,-31.8976,26.8753,283.46,77,100,2.4,ZA,1691556901
507,shohimardon,39.9839,71.8028,290.58,43,0,0.5,UZ,1691540286
508,amahai,-3.3333,128.9167,299.22,79,71,6.07,ID,1691530222
509,newman,37.3138,-121.0208,307.67,41,0,1.34,US,1691500462
510,scottburgh,-30.2867,30.7532,292.28,62,100,5.99,ZA,1691555822
511,kloulklubed,7.0419,134.2556,299.43,79,99,6.86,PW,1691528220
512,kabansk,52.0486,106.6528,292.28,92,100,1.91,RU,1691529990
513,gwadar,25.1216,62.3254,300.11,80,69,3.26,PK,1691544095
514,geraldton,-28.7667,114.6,289.38,77,0,6.17,AU,1691535574
515,chernyshevskiy,63.0128,112.4714,296.35,57,9,5.39,RU,1691525340
516,mpika,-11.8343,31.4529,284.65,70,5,2.59,ZM,1691554201
517,lumphat,13.4878,106.9816,300.84,78,51,2.12,KH,1691534301
518,chemini,36.6,4.6167,288.63,44,62,0.93,DZ,1691556823
519,kruisfontein,-34.0033,24.7314,285.86,89,100,1.89,ZA,1691557617
520,mineros,-17.1167,-63.2333,296.35,46,0,1.74,BO,1691490931
521,akdepe,42.0551,59.3788,293.2,37,0,1.68,TM,1691543001
522,visakhapatnam,17.69,83.2093,302.81,61,96,2.13,IN,1691539689
523,cole harbour,44.6724,-63.4751,293.12,92,100,3.58,CA,1691485671
524,st. john's,47.5649,-52.7093,286.36,91,100,4.12,CA,1691482625
525,menongue,-14.6585,17.691,284.82,51,4,1.33,AO,1691557706
526,gao,16.6362,1.637,303.59,50,100,4.61,ML,1691559351
527,paradip garh,20.3167,86.6167,302.27,66,100,4.49,IN,1691538664
528,chimore,-16.9833,-65.1333,298.46,58,86,0.47,BO,1691491376
529,mogok,22.9167,96.5,291.69,98,100,0.94,MM,1691536078
530,chichihualco,17.6833,-99.65,294.42,84,4,1.85,MX,1691497168
531,ishinomaki,38.4167,141.3,302.15,79,30,8.49,JP,1691523789
532,zhezqazghan,47.7833,67.7667,291.47,77,0,2.0,KZ,1691540127
533,akjoujt,19.6969,-14.4164,304.54,24,6,4.37,MR,1691562967
534,keita,14.7551,5.7749,299.07,75,98,3.42,NE,1691558500
535,qamdo,31.1667,97.2333,285.94,63,46,2.08,CN,1691535156
536,kovur,14.4833,79.9833,302.24,61,99,5.41,IN,1691540707
537,cooper's town,26.8667,-77.5167,303.26,71,7,3.96,BS,1691491084
538,cartagena del chaira,1.3349,-74.8429,295.31,98,63,1.48,CO,1691492404
539,zaragoza,41.6561,-0.8773,297.4,70,0,2.06,ES,1691557526
540,korkut,38.7391,41.7822,294.86,33,0,1.34,TR,1691547649
541,lenger,42.183,69.8839,294.84,31,0,1.55,KZ,1691540461
542,selfoss,63.9331,-20.9971,282.62,80,9,2.66,IS,1691557021
543,hami,42.8,93.45,302.72,32,100,4.98,CN,1691534717
544,tamandare,-8.7597,-35.1047,296.88,81,44,3.4,BR,1691483574
545,waingapu,-9.6567,120.2641,300.72,59,55,7.02,ID,1691532738
546,port isabel,26.0734,-97.2086,304.2,76,0,9.77,US,1691495883
547,caleta de carquin,-11.0925,-77.6267,292.2,81,36,4.63,PE,1691493943
548,shimoda,34.6667,138.95,302.35,88,99,4.34,JP,1691524779
549,nelson bay,-32.7167,152.15,292.09,76,0,2.24,AU,1691526931
550,alausi,-2.2,-78.8333,281.23,82,99,3.48,EC,1691493608
551,tillaberi,14.2117,1.4531,300.96,64,99,5.06,NE,1691559577
552,constitucion,-35.3333,-72.4167,285.2,66,100,2.45,CL,1691494710
553,lerwick,60.1545,-1.1494,283.15,78,100,14.26,GB,1691553761
554,vila velha,-20.3297,-40.2925,296.12,91,40,7.2,BR,1691485673
555,yuxi,24.355,102.5422,295.03,87,90,1.11,CN,1691534506
556,isangel,-19.55,169.2667,297.21,64,75,3.09,VU,1691521704
